sn,model,extrinsics,x,y,z,yaw,pitch,roll,calibration_engineer,calibration_time,calibration_run,extrinsics,ref_lidar_id,device_path,hardware_trigger,rotate_90_ccw,expected_fps,roi,x,y,width,height,roi,full_undistort_fov,warp_perspective,warped_size,width,height,warped_size,camera_to_vehicle_extrinsics,x,y,z,yaw,pitch,roll,camera_to_vehicle_extrinsics
H60-D07270591,AR0231_H60,{,0.0835,0,-0.0887,0.00900589894029074,0.059114301765047818,-0.0071383966406568106,"""wudaoquan""","""2021-09-27",,},LDR_FRONT_LEFT,"""/dev/video2""",true,false,10,{,,,,,},,,{,,,},{,,,,,,,}
H120-D07270537,AR0231_H120,{,0.0537,0.064,-0.0888,0.88760464439423614,0.0022165681500328,0.0038571776469074862,"""wudaoquan""","""2021-09-27",,},LDR_FRONT_LEFT,"""/dev/video0""",true,true,10,{,0,720,1080,1200,},,,{,,,},{,,,,,,,}
H60-D08190562,AR0231_H60,{,0.0835,-0.015000000000000006,-0.0887,0.0043458698374658818,0.02878047936538659,-0.0087266462599716477,"""linhan""","""2022-02-25",,},LDR_FRONT_RIGHT,"""/dev/video4""",true,false,10,{,,,,,},,,{,,,},{,,,,,,,}
H120-D07270567,AR0231_H120,{,0.0537,-0.06,-0.0887,-0.83665848352852268,0.0058992128717408419,-0.0065100781099388808,"""wudaoquan""","""2021-09-27",,},LDR_FRONT_RIGHT,"""/dev/video6""",true,true,10,{,0,720,1080,1200,},,,{,,,},{,,,,,,,}

sn,model,radar_id,extrinsics,x,y,z,yaw,pitch,roll,calibration_engineer,calibration_time,calibration_run,extrinsics,socket_can_id,sensor_id
RADAR_ZS2F26NI,RADAR_CONTI408,RAD_FRONT,{,3.85,0,0.67,-0.0037,0,0,"""zhihui""","""2021-07-27",,},2,0
RADAR_U7NVX02W,RADAR_CONTI408,RAD_REAR,{,-1,0,0.59,-3.13,0,0,"""zhihui""","""2021-05-30",,},3,1

sn,model,lidar_id,extrinsics,x,y,z,yaw,pitch,roll,calibration_engineer,calibration_time,calibration_run,extrinsics,enabled,valid_point_min_range,rs_lidar_params,difop_port,ip_address,rs_lidar_params,hesai_lidar_params,intensity_nonlinear_mapping,hesai_lidar_params,ouster_lidar_params,ip_address,ouster_lidar_params,port,ip
PA643CCC53933CCD57,LIDAR_PANDAR_64,LDR_FRONT_LEFT,{,0.9992201329,0.5769063236,1.7770141365,-0.0091494184585521054,0.000820194581775624,-0.0029499394225327435,"""mingbo""","""2021-12-29",,},true,,{,,,},{,true,},{,,},2368,"""192.168.6.201"""
PA6436CE5A9236CF5E,LIDAR_PANDAR_64,LDR_FRONT_RIGHT,{,1.0032530314392241,-0.51954374940846337,1.7947005261121483,0.0070880374002133262,-0.0054070690134534064,0.0079104022524396373,"""mingbo""","""2021-12-29",,},true,,{,,,},{,true,},{,,},2369,"""192.168.6.202"""
2400BACC8F3C,LIDAR_RS_BPEARL,LDR_FRONT_LEFT_BLIND,{,0.99522052904751335,0.673017512067241,1.5704869947519664,-2.3755248256568677,0.0019487089896101928,0.00011565415597747375,"""mingbo""","""2021-12-29",,},true,0.8,{,7788,"""192.168.6.203""",},{,,},{,,},2370,
2400BACA2964,LIDAR_RS_BPEARL,LDR_FRONT_RIGHT_BLIND,{,0.98432841464538967,-0.53198385274314841,1.5536187811336379,2.3668742892448216,0.012704409577280735,0.0014999912906816749,"""mingbo""","""2021-12-29",,},true,0.8,{,7789,"""192.168.6.204""",},{,,},{,,},2371,

sn,model,antenna_extrinsics,id,x,y,z,antenna_extrinsics,antenna_extrinsics,id,x,y,z,antenna_extrinsics,format,data_port,udp,address,port,src_port,udp,tcp,address,port,tcp,data_port,command_port,udp,address,port,src_port,udp,command_port,imu_extrinsics,x,y,z,yaw,pitch,roll,calibration_engineer,calibration_time,calibration_run,imu_extrinsics,gnss_data_rate_hz,imu_data_rate_hz
GNSS_2RTHI0ZL,GNSS_NERTON_M2,{,ANT1,-0.46,-0.57,0.85,},{,ANT2,0.3369,1.5528,1.1825,},NEWTONM2_TEXT,{,{,"""192.168.5.111""",3003,7000,},{,,,},},{,{,"""192.168.5.111""",3004,7001,},},{,0.063091,0.26,-0.36,-0.039932455124227391,2.0179160445402138,0,"""linhan""","""2022-04-20",,},20,0

sn,model,nodes_run_config,nodes,node_name,name_space,node_ip,node_port,lite_launch_config_filenam,timeout,nodes,nodes_scheme_name,nodes_run_config,obc_config,ip_address,main_display,obc_type,node_name_to_camera_id,node_name,camera_id,camera_id,camera_id,camera_id,node_name_to_camera_id,obc_config
OBC_KMKC6ETW,OBC_XAVIER,{,{,"""sensor_node_1""","""xavier""","""192.168.7.101""","""50071""",,50,},"""node_normal_5""",},{,"""192.168.5.101""",false,,{,"""sensor_node_1""",CAM_L_FRONT,CAM_L_FRONT_LEFT,CAM_R_FRONT,CAM_R_FRONT_RIGHT,},}
OBC_ZS4BK2C0,OBC_XAVIER,{,{,,,,,,,},,},{,"""192.168.5.105""",true,OT_NVIDIA_TX2_NX,{,"""sensor_node_5""",,},}

sn,model,obu_entity,ip,port,is_send,enabled,sub_type,obu_entity
V2X_46WGKLCW,V2X_UNKNOWN,{,,,,,,}

sn,model,can_params,type,bit_rate,socketcan_ifname,enable,can_params,omc_config,gpu_id_to_device_id,gpu_id,device_id,gpu_type,gpu_id_to_device_id,gpu_id_to_device_id,gpu_id,device_id,gpu_type,gpu_id_to_device_id,ip_address,main_display,omc_config,nodes_run_config,nodes_scheme_name,nodes,node_name,name_space,node_ip,node_port,lite_launch_config_filename,timeout,nodes,nodes_run_config
OMC_463CUF7N,OMC_X86,{,SOCKETCAN,500000,"""can0""",true,},{,{,GPU_0,1,GT_RTX_2080_TI,},{,GPU_1,0,GT_RTX_2080_TI,},"""192.168.5.100""",false,},{,"""node_normal_5""",{,"""main_node""","""omc""","""192.168.7.100""","""50070""","""launch_run_with_ra_2.pb.txt""",50,},}




