sn,model,camera_id,extrinsics,x,y,z,yaw,pitch,roll,calibration_engineer,calibration_time,calibration_run,extrinsics,ref_lidar_id,device_path,hardware_trigger,rotate_90_ccw,expected_fps,roi,x,y,width,height,roi,full_undistort_fov,warp_perspective,warped_size,width,height,warped_size,camera_to_vehicle_extrinsics,x,y,z,yaw,pitch,roll,camera_to_vehicle_extrinsics
H110SA-D11300083,IMX490_H115,CAM_L_REAR_LEFT,{,-0.0912,0.0526,-0.0817,2.6237534645230736,0.000331612557878924,0.0066671577426183383,"""maotao""","""2022-04-24","""20220424_115158_Q2202""",},LDR_FRONT_LEFT,"""/dev/video7""",true,true,20,{,130,1280,1600,1600,},,,{,,,},{,,,,,,,}
H110SA-D11300385,IMX490_H115,CAM_L_LEFT,{,-0.0181,0.1017,-0.0817,1.7571974909078856,0.0033859387488689996,0.0090233522328106823,"""maotao""","""2022-04-24","""20220424_152405_Q2202""",},LDR_FRONT_LEFT,"""/dev/video6""",true,true,20,{,160,1280,1600,1600,},,,{,,,},{,,,,,,,}
H110SA-D11300371,IMX490_H115,CAM_L_FRONT_LEFT,{,0.0788,0.0879,-0.0857,0.882996975168972,0.0067893307902579473,-0.0034033920413889542,"""maotao""","""2022-03-30",,},LDR_FRONT_LEFT,"""/dev/video5""",true,true,20,{,190,960,1600,1920,},,,{,,,},{,,,,,,,}
H110SA-D11300086,IMX490_H115,CAM_L_FRONT,{,0.1073,0,-0.0817,0.0038397243543875238,0.00654498469497874,0.0034033920413889477,"""maotao""","""2022-04-24","""20220424_115158_Q2202""",},LDR_FRONT_LEFT,"""/dev/video4""",true,true,20,{,220,960,1600,1920,},,,{,,,},{,,,,,,,}
H60S-E02180044,AR0820_H60,CAM_R_FRONT_HD,{,0.0994,0.043,-0.0817,0.044156830075456531,-0.030037116426822413,-0.010663961729685355,"""maotao""","""2022-04-24","""20220424_152405_Q2202""",},LDR_FRONT_RIGHT,"""/dev/video2""",true,false,20,{,0,680,3840,800,},,,{,,,},{,,,,,,,}
H60S1-D12160019,IMX490_H60,CAM_R_FRONT_DIM,{,0.1052,0,-0.0817,0.02467895562319964,-0.018029251173101536,0.0049043751981040652,"""maotao""","""2022-04-24","""20220424_152405_Q2202""",},LDR_FRONT_RIGHT,"""/dev/video0""",true,false,20,{,0,0,2880,1860,},,,{,,,},{,,,,,,,}
H110SA-D11300110,IMX490_H115,CAM_R_FRONT_RIGHT,{,0.067,-0.0799,-0.0817,-0.85924304404932839,0.0023911010752322307,0.0016580627893946131,"""maotao""","""2022-04-24","""20220424_115158_Q2202""",},LDR_FRONT_RIGHT,"""/dev/video0""",true,true,20,{,250,960,1600,1920,},,,{,,,},{,,,,,,,}
H110SA-D11300186,IMX490_H115,CAM_R_RIGHT,{,-0.0179,-0.1017,-0.0817,-1.7252405123038719,-0.0056548667764616317,-0.0069987703004972613,"""maotao""","""2022-04-24","""20220424_115158_Q2202""",},LDR_FRONT_RIGHT,"""/dev/video1""",true,true,20,{,10,1280,1600,1600,},,,{,,,},{,,,,,,,}
H110SA-D11300308,IMX490_H115,CAM_R_REAR_RIGHT,{,-0.0912,-0.0527,-0.0817,-2.60479918884642,-0.0022165681500327947,0.0033161255787892223,"""maotao""","""2022-03-30",,},LDR_FRONT_RIGHT,"""/dev/video2""",true,true,20,{,130,1280,1600,1600,},,,{,,,},{,,,,,,,}

sn,model,radar_id,extrinsics,x,y,z,yaw,pitch,roll,calibration_engineer,calibration_time,calibration_run,extrinsics,socket_can_id,sensor_id
RADAR_S3H1089P,RADAR_CONTI408,RAD_FRONT,{,3.68,0,0.4,0.0002,0,0,"""zhihui""","""2022-03-28",,},2,0
RADAR_CAEK4VSF,RADAR_CONTI408,RAD_REAR,{,-0.81661,0.51,0.654,0.0005,0,0,"""zhihui""","""2021-05-28",,},3,1

sn,model,lidar_id,extrinsics,x,y,z,yaw,pitch,roll,calibration_engineer,calibration_time,calibration_run,extrinsics,enabled,valid_point_min_range,rs_lidar_params,difop_port,ip_address,rs_lidar_params,hesai_lidar_params,intensity_nonlinear_mapping,hesai_lidar_params,ouster_lidar_params,ip_address,ouster_lidar_params,port,ip
PA643DCE52913DCF55,LIDAR_PANDAR_64,LDR_FRONT_RIGHT,{,1.589565754352219,-0.64202153036142351,1.8369070118698247,-0.01636222025195444,0.001983076022704644,0.00792329679201842,"""czh""","""2022-04-01","""20220401_103943_Q2202""",},true,,{,,,},{,true,},{,,},2369,"""192.168.6.202"""
PA643DCD51913DCC56,LIDAR_PANDAR_64,LDR_FRONT_LEFT,{,1.5875500119421224,0.64202153036142351,1.8322,-0.0027002494681429567,0.0033268760099431915,0.00890292851257568,"""czh""","""2022-04-01","""20220401_103943_Q2202""",},true,,{,,,},{,true,},{,,},2368,"""192.168.6.201"""
2400BAD7A9DA,LIDAR_RS_BPEARL,LDR_FRONT_LEFT_BLIND,{,1.5931535903080711,0.653817159010964,1.5731782045984672,-2.3698607855703124,0.002339166957632699,-0.009601903941120149,"""czh""","""2022-04-01","""20220401_103943_Q2202""",},true,0.8,{,7788,"""192.168.6.203""",},{,,},{,,},2370,
2400BAD70693,LIDAR_RS_BPEARL,LDR_FRONT_RIGHT_BLIND,{,1.5978553769909156,-0.63507499940151113,1.5763124875340859,2.3731869387547175,-0.0055147004899311807,-0.00049030699145290353,"""czh""","""2022-04-01","""20220401_103943_Q2202""",},true,0.8,{,7789,"""192.168.6.204""",},{,,},{,,},2371,

sn,model,antenna_extrinsics,id,x,y,z,antenna_extrinsics,antenna_extrinsics,id,x,y,z,antenna_extrinsics,format,data_port,udp,address,port,src_port,udp,tcp,address,port,tcp,data_port,command_port,udp,address,port,src_port,udp,command_port,imu_extrinsics,x,y,z,yaw,pitch,roll,calibration_engineer,calibration_time,calibration_run,imu_extrinsics,gnss_data_rate_hz,imu_data_rate_hz
GNSS_8ZH4069K,GNSS_NERTON_M2,{,ANT1,-0.29,0.18,0.85,},{,ANT2,0.29,0.18,0.85,},NEWTONM2_TEXT,{,{,"""192.168.5.111""",3003,7000,},{,,,},},{,{,"""192.168.5.111""",3004,7001,},},{,0.12175,0.488662,-0.589741,-0.65080537305074315,0.63445531018460688,0,"""maotao""","""2022-03-28",,},20,0

sn,model,can_params,type,bit_rate,socketcan_ifname,enable,can_params,omc_config,gpu_id_to_device_id,gpu_id,device_id,gpu_type,gpu_id_to_device_id,gpu_id_to_device_id,gpu_id,device_id,gpu_type,gpu_id_to_device_id,ip_address,main_display,omc_config,nodes_run_config,nodes_scheme_name,nodes,node_name,name_space,node_ip,node_port,lite_launch_config_filename,timeout,nodes,nodes,node_name,name_space,node_ip,node_port,lite_launch_config_filename,timeout,nodes,nodes_run_config
OMC_40REK3M5,OMC_X86,{,SOCKETCAN,500000,"""can0""",true,},{,{,GPU_0,1,GT_RTX_A4000,},{,GPU_1,0,GT_RTX_A4000,},"""192.168.5.100""",false,},{,"""node_normal_10""",{,"""main_node""","""omc""","""192.168.7.100""","""50070""","""launch_run_with_ra_2.pb.txt""",50,},{,"""main_node""","""omc""","""192.168.8.100""","""50080""","""launch_run_with_ra_2.pb.txt""",50,},}

sn,model,nodes_run_config,nodes,node_name,name_space,node_ip,node_port,lite_launch_config_filename,timeout,nodes,nodes_scheme_name,nodes_run_config,obc_config,ip_address,main_display,obc_type,node_name_to_camera_id,node_name,camera_id,camera_id,camera_id,camera_id,camera_id,camera_id,camera_id,camera_id,node_name_to_camera_id,obc_config
OBC_IMSDU4K9,OBC_XAVIER,{,{,"""sensor_node_1""","""xavier""","""192.168.7.101""","""50071""","""launch_run_xavier.pb.txt""",50,},"""node_normal_10""",},{,,false,OT_NVIDIA_XAVIER_AGX,{,"""sensor_node_1""",CAM_L_FRONT_LEFT,CAM_L_LEFT,CAM_L_REAR_LEFT,CAM_R_FRONT_HD,CAM_R_FRONT_DIM,CAM_L_FRONT,,,},}
OBC_9SGUCXSI,OBC_XAVIER,{,{,"""sensor_node_2""","""xavier""","""192.168.8.101""","""50081""","""launch_run_xavier.pb.txt""",50,},"""node_normal_10""",},{,"""192.168.5.102""",true,OT_NVIDIA_XAVIER_AGX,{,"""sensor_node_2""",CAM_R_FRONT_RIGHT,CAM_R_RIGHT,CAM_R_REAR_RIGHT,,,,,,},}

sn,model,obu_entity,ip,port,is_send,enabled,sub_type,obu_entity
V2X_0T2S4QNO,V2X_UNKNOWN,{,,,,,,}




