sn,model,type,camera_id,extrinsics,x,y,z,yaw,pitch,roll,calibration_engineer,calibration_time,calibration_run,extrinsics,ref_lidar_id,device_path,hardware_trigger,rotate_90_ccw,expected_fps,roi,x,y,width,height,roi,full_undistort_fov,warp_perspective,warped_size,width,height,warped_size,camera_to_vehicle_extrinsics,x,y,z,yaw,pitch,roll,camera_to_vehicle_extrinsics
H110SA-E02280194,IMX490_H115,HARDWARE_CAMERA,CAM_L_REAR_LEFT,{,-0.0912,0.0527,-0.0817,2.6404388121721531,0.0022689280275926282,0.0028797932657906346,"""maotao""","""2022-05-04 13:31:42""","""20220429_155824_Q2204""",},LDR_FRONT_LEFT,"""/dev/video7""",true,true,20,{,130,1280,1600,1600,},,,{,,,},{,,,,,,,}
H110SA-E02280191,IMX490_H115,HARDWARE_CAMERA,CAM_L_LEFT,{,-0.0181,0.1017,-0.0817,1.760740509289447,0.00054105206811824117,0.0013613568165555768,"""maotao""","""2022-05-07 06:33:41""","""20220507_131619_Q2204""",},LDR_FRONT_LEFT,"""/dev/video6""",true,true,20,{,160,1280,1600,1600,},,,{,,,},{,,,,,,,}
H110SA-E02280203,IMX490_H115,HARDWARE_CAMERA,CAM_L_FRONT_LEFT,{,0.0669,0.0799,-0.0817,0.88477721100600382,-0.00048869219055841225,0.0084823001646924419,"""maotao""","""2022-05-07 06:33:41""","""20220507_131619_Q2204""",},LDR_FRONT_LEFT,"""/dev/video5""",true,true,20,{,190,960,1600,1920,},,,{,,,},{,,,,,,,}
H110SA-E02280098,IMX490_H115,HARDWARE_CAMERA,CAM_L_FRONT,{,0.1073,0,-0.0817,0.013997540600994524,-0.0044680428851054839,-0.0078539816339744835,"""maotao""","""2022-05-07 06:33:41""","""20220507_131619_Q2204""",},LDR_FRONT_LEFT,"""/dev/video4""",true,true,20,{,220,960,1600,1920,},,,{,,,},{,,,,,,,}
H60S-E02180012,AR0820_H60,HARDWARE_CAMERA,CAM_R_FRONT_HD,{,0.0994,0.043,-0.0817,0.022130774915288053,-0.00057595865315812752,-0.0034382986264288274,"""maotao""","""2022-05-07 06:33:41""","""20220507_131619_Q2204""",},LDR_FRONT_RIGHT,"""/dev/video4""",true,false,20,{,0,680,3840,800,},,,{,,,},{,,,,,,,}
H60S1-E02180033,IMX490_H60,HARDWARE_CAMERA,CAM_R_FRONT_DIM,{,0.1047,0,-0.0817,0.031258846903218514,-0.017575465567582885,-0.02535963403147733,"""maotao""","""2022-05-07 06:33:41""","""20220507_131619_Q2204""",},LDR_FRONT_RIGHT,"""/dev/video3""",true,false,20,{,0,0,2880,1860,},,,{,,,},{,,,,,,,}
H110SA-E02280166,IMX490_H115,HARDWARE_CAMERA,CAM_R_FRONT_RIGHT,{,0.067,-0.0799,-0.0817,-0.85376271019806627,0.0031939525311496255,0.00083775804095727823,"""maotao""","""2022-05-07 06:33:41""","""20220507_131619_Q2204""",},LDR_FRONT_RIGHT,"""/dev/video5""",true,true,20,{,250,960,1600,1920,},,,{,,,},{,,,,,,,}
H110SA-E02280095,IMX490_H115,HARDWARE_CAMERA,CAM_R_RIGHT,{,-0.0179,-0.1017,-0.0817,-1.7177705031053421,0.0047822021504644631,0.0083077672394930076,"""maotao""","""2022-05-07 06:33:41""","""20220507_131619_Q2204""",},LDR_FRONT_RIGHT,"""/dev/video6""",true,true,20,{,10,1280,1600,1600,},,,{,,,},{,,,,,,,}
H110SA-E02280159,IMX490_H115,HARDWARE_CAMERA,CAM_R_REAR_RIGHT,{,-0.0912,-0.0527,-0.0817,-2.5917266727489725,0.0014137166941154071,-0.0020071286397934777,"""maotao""","""2022-05-07 06:33:41""","""20220507_131619_Q2204""",},LDR_FRONT_RIGHT,"""/dev/video7""",true,true,20,{,130,1280,1600,1600,},,,{,,,},{,,,,,,,}
H60S-E03120516,IMX490_H60,HARDWARE_CAMERA,CAM_PBQ_REAR,{,-1.718,-0.643,-0.2272,-3.1264082890974425,0.020228366030614189,-0.00017453292519943296,"""maotao""","""2022-05-07 06:33:41""","""20220507_131619_Q2204""",},LDR_FRONT_LEFT,"""/dev/video2""",true,false,20,{,0,384,2624,1152,},true,,{,,,},{,-0.12423,-0.00272973,1.57264,-3.13325,0.021224,-0.017157,}
H110SA-E03210058,IMX490_H115,HARDWARE_CAMERA,CAM_PBQ_REAR_LEFT,{,0.652,0.312,-0.9972,-3.8411031644966007,-0.015166911199830723,0.014224433403753785,"""maotao""","""2022-04-28 07:52:23""","""20220428_145929_Q2204""",},LDR_FRONT_LEFT,"""/dev/video0""",true,false,20,{,660,0,2304,1536,},true,false,{,,,},{,2.25257,0.949794,0.820728,2.43587,-0.0255385,0.000741906,}
H110SA-E03210009,IMX490_H115,HARDWARE_CAMERA,CAM_PBQ_FRONT_LEFT,{,0.018,-0.036,-0.2812,1.0602875205865541,0.19952604008799177,-0.0022689280275926286,"""maotao""","""2022-05-06 16:28:19""","""20220506_204947_Q2204""",},LDR_FRONT_LEFT,"""/dev/video0""",true,false,20,{,,,,,},true,true,{,2304,1536,},{,1.61571,0.593808,1.53024,1.05528,0.184333,0.00551902,}
H110SA-E03210055,IMX490_H115,HARDWARE_CAMERA,CAM_PBQ_FRONT_RIGHT,{,0.018,0.036,-0.2812,-1.024665350553351,0.17812830345854075,0.013089969389957472,"""maotao""","""2022-05-07 06:33:41""","""20220507_131619_Q2204""",},LDR_FRONT_RIGHT,"""/dev/video1""",true,false,20,{,,,,,},true,true,{,2304,1536,},{,1.61576,-0.620322,1.55363,-1.04378,0.183789,0.0238161,}
H110SA-E03210045,IMX490_H115,HARDWARE_CAMERA,CAM_PBQ_REAR_RIGHT,{,0.652,-0.312,-0.9972,-2.4265312590477164,0.0028623399732707029,-0.015184364492350669,"""maotao""","""2022-05-07 06:33:41""","""20220507_131619_Q2204""",},LDR_FRONT_RIGHT,"""/dev/video1""",true,false,20,{,128,0,2304,1536,},true,false,{,,,},{,2.2468,-0.974289,0.837932,-2.44761,0.0142112,-0.019002,}
H110SA-E03210056,IMX490_H115,HARDWARE_CAMERA,CAM_PBQ_FRONT_WIDE,{,0.1379,0,-0.212,-0.0045553093477052,0.067352255834461042,-0.0011170107212763721,"""maotao""","""2022-05-04 13:31:42""","""20220429_155824_Q2204""",},LDR_FRONT,"""/dev/video2""",true,false,20,{,,,,,},,,{,,,},{,1.86634,-0.0116718,1.41758,-0.0079468,0.0666818,0.0120621,}

sn,model,type,antenna_extrinsics,id,x,y,z,calibration_time,calibration_engineer,antenna_extrinsics,antenna_extrinsics,id,x,y,z,calibration_time,calibration_engineer,antenna_extrinsics,format,data_port,udp,address,port,src_port,udp,tcp,address,port,tcp,data_port,command_port,udp,address,port,src_port,udp,command_port,imu_extrinsics,x,y,z,yaw,pitch,roll,calibration_engineer,calibration_time,calibration_run,imu_extrinsics,gnss_data_rate_hz,imu_data_rate_hz
GNSS_YBH5NW09,GNSS_NERTON_M2,HARDWARE_GNSS,{,ANT1,-0.335,0.2086,0.912259,"""2020-06-21 13:38 PDT""","""""",},{,ANT2,0.57175,0.2086,0.912259,"""2020-12-15 13:38 PDT""","""""",},NEWTONM2_TEXT,{,{,"""192.168.5.111""",3003,7000,},{,,,},},{,{,"""192.168.5.111""",3004,7001,},},{,0.12175,0.488662,-0.589741,-0.34742661011257764,0.26149055950182865,0,"""maotao""","""2022-05-06 09:52:27""","""20220506_171508_Q2204""",},20,0

sn,model,type,lidar_id,extrinsics,x,y,z,yaw,pitch,roll,calibration_engineer,calibration_time,calibration_run,extrinsics,enabled,valid_point_min_range,rs_lidar_params,difop_port,ip_address,rs_lidar_params,hesai_lidar_params,intensity_nonlinear_mapping,hesai_lidar_params,ouster_lidar_params,ip_address,ouster_lidar_params,port,ip,ignored_scan_azimuth_ranges_in_degree,first,last,first_beam,last_beam,ignored_scan_azimuth_ranges_in_degree,ignored_scan_azimuth_ranges_in_degree,first,last,first_beam,last_beam,ignored_scan_azimuth_ranges_in_degree,ignored_scan_azimuth_ranges_in_degree,first,last,first_beam,last_beam,ignored_scan_azimuth_ranges_in_degree
1250BBACBFAA,LIDAR_RS_M1,HARDWARE_LIDAR,LDR_FRONT,{,1.7282775374621389,-0.013868079945788758,1.6294614105600502,-0.0042788324556459756,-0.00072448028375360352,0.013146644995654988,"""maotao""","""2022-05-06 11:26:11""","""20220506_181747_Q2204""",},true,,{,7790,"""192.168.6.205""",},{,,},{,,},2372,,{,,,,,}
PA6438CB569538CA52,LIDAR_PANDAR_64,HARDWARE_LIDAR,LDR_FRONT_LEFT,{,1.597708442829203,0.62514295112594331,1.812,-0.0064970307991965015,-0.00074069501977414021,0.016991874779034521,"""maotao""","""2022-05-06 11:26:11""","""20220506_181747_Q2204""",},true,,{,,,},{,true,},{,,},2368,"""192.168.6.201""",{,260,275,,,},{,170,360,62,63,},{,0,10,62,63,}
PA643FC258953FC35F,LIDAR_PANDAR_64,HARDWARE_LIDAR,LDR_FRONT_RIGHT,{,1.5952450301052419,-0.65879874263951177,1.8343265207645558,-0.021076291139660697,-0.00606607170797302,0.010323466909991641,"""maotao""","""2022-05-06 11:26:11""","""20220506_181747_Q2204""",},true,,{,,,},{,true,},{,,},2369,"""192.168.6.202""",{,80,95,,,},{,0,190,62,63,},{,350,360,62,63,}
2400BAD869E3,LIDAR_RS_BPEARL,HARDWARE_LIDAR,LDR_FRONT_LEFT_BLIND,{,1.6110929318498355,0.64131901149764547,1.5931909444859731,-2.3754422654696761,0.015261939593659513,-0.0096996477575039819,"""maotao""","""2022-05-06 11:26:11""","""20220506_181747_Q2204""",},true,0.8,{,7788,"""192.168.6.203""",},{,,},{,,},2370,,{,70,220,,,},{,15,45,19,20,},{,15,45,27,27,}
2400BAD8FA71,LIDAR_RS_BPEARL,HARDWARE_LIDAR,LDR_FRONT_RIGHT_BLIND,{,1.6084656314510362,-0.66635948302916,1.5955100340325579,2.3798724501641875,-0.0022184848510037932,-0.0091988864775528357,"""maotao""","""2022-05-06 11:26:11""","""20220506_181747_Q2204""",},true,0.8,{,7789,"""192.168.6.204""",},{,,},{,,},2371,,{,140,290,,,},{,315,345,19,20,},{,315,345,27,27,}

sn,model,type,obc_config,ip_address,node_name_to_camera_id,node_name,camera_id,camera_id,camera_id,camera_id,camera_id,camera_id,camera_id,camera_id,node_name_to_camera_id,main_display,obc_type,obc_config,nodes_run_config,nodes_scheme_name,nodes,node_name,name_space,node_ip,node_port,lite_launch_config_filename,timeout,nodes,nodes_run_config
OBC_NXO4AP9Q,OBC_XAVIER,HARDWARE_OBC,{,,{,"""sensor_node_1""",CAM_PBQ_REAR_LEFT,CAM_PBQ_REAR_RIGHT,CAM_PBQ_REAR,CAM_R_FRONT_DIM,CAM_R_FRONT_HD,CAM_R_FRONT_RIGHT,CAM_R_RIGHT,CAM_R_REAR_RIGHT,},false,OT_NVIDIA_XAVIER_AGX,},{,"""node_normal_10""",{,"""sensor_node_1""","""xavier""","""192.168.7.101""","""50071""","""launch_run_xavier.pb.txt""",50,},}
OBC_ZNNETIEM,OBC_XAVIER,HARDWARE_OBC,{,"""192.168.5.102""",{,"""sensor_node_2""",CAM_PBQ_FRONT_LEFT,CAM_PBQ_FRONT_RIGHT,CAM_L_FRONT,CAM_L_FRONT_LEFT,CAM_L_LEFT,CAM_L_REAR_LEFT,CAM_PBQ_FRONT_WIDE,,},false,OT_NVIDIA_XAVIER_AGX,},{,"""node_normal_10""",{,"""sensor_node_2""","""xavier""","""192.168.8.101""","""50081""","""launch_run_xavier.pb.txt""",50,},}
OBC_JHBGLW04,OBC_XAVIER,HARDWARE_OBC,{,"""192.168.5.105""",{,"""sensor_node_5""",,,,,,,,,},true,OT_NVIDIA_TX2_NX,},{,,{,,,,,,,},}

sn,model,type,can_params,type,bit_rate,socketcan_ifname,enable,can_params,omc_config,gpu_id_to_device_id,gpu_id,device_id,gpu_type,gpu_id_to_device_id,gpu_id_to_device_id,gpu_id,device_id,gpu_type,gpu_id_to_device_id,ip_address,main_display,omc_config,nodes_run_config,nodes_scheme_name,nodes,node_name,name_space,node_ip,node_port,lite_launch_config_filename,timeout,nodes,nodes,node_name,name_space,node_ip,node_port,lite_launch_config_filename,timeout,nodes,nodes_run_config
OMC_9I9B1DJH,OMC_X86,HARDWARE_OMC,{,SOCKETCAN,500000,"""can0""",true,},{,{,GPU_0,1,GT_RTX_A4000,},{,GPU_1,0,GT_RTX_A4000,},"""192.168.5.100""",false,},{,"""node_normal_10""",{,"""main_node""","""omc""","""192.168.7.100""","""50070""","""launch_run_with_ra_2.pb.txt""",50,},{,"""main_node""","""omc""","""192.168.8.100""","""50080""","""launch_run_with_ra_2.pb.txt""",50,},}

sn,model,type,radar_id,extrinsics,x,y,z,yaw,pitch,roll,calibration_engineer,calibration_time,calibration_run,extrinsics,socket_can_id,sensor_id
RADAR_LPFH7JC6,RADAR_CONTI408,HARDWARE_RADAR,RAD_FRONT,{,3.68,0,0.4,-0.0062,0,0,"""zhihui""","""2021-06-25 06:16:22""",,},2,0
RADAR_2633G24L,RADAR_CONTI308,HARDWARE_RADAR,RAD_REAR_LEFT,{,-0.755,0.745,0.85,2.2431,0,0,"""zhihui""","""2022-03-24 06:16:22""",,},1,4
RADAR_2633TW2R,RADAR_CONTI308,HARDWARE_RADAR,RAD_REAR_RIGHT,{,-0.755,-0.745,0.85,-2.2033,0,0,"""zhihui""","""2022-03-24 06:16:22""",,},3,5

sn,model,type,obu_entity,ip,port,is_send,enabled,sub_type,obu_entity
V2X_3XPMFIK2,V2X_UNKNOWN,HARDWARE_V2X,{,,,,,,}

sn,model,type,steering_direction,wheel_rolling_radius,serial_no
VEHICLE_2A3ARHI6,VEHICLE_MARVELR,HARDWARE_VEHICLE,,0.347,"""VEHICLE_2A3ARHI6"""

