sn,model,extrinsics,x,y,z,yaw,pitch,roll,calibration_engineer,calibration_time,calibration_run,extrinsics,ref_lidar_id,device_path,hardware_trigger,rotate_90_ccw,expected_fps,roi,x,y,width,height,roi,full_undistort_fov,warp_perspective,warped_size,width,height,warped_size,camera_to_vehicle_extrinsics,x,y,z,yaw,pitch,roll,camera_to_vehicle_extrinsics
H110SA-D11300348,IMX490_H115,{,-0.017,0.156,-0.026,0.47092473877311,0.28708920866054727,0.016458454846306526,"""test""","""2022-04-28",,},LDR_FRONT_LEFT,"""/dev/video0""",true,false,20,{,,,,,},true,true,{,2304,1536,},{,,,,,,,}
H110SA-D11300061,IMX490_H115,{,-1.42,-2.081,-0.716,0.0973893722612836,0.012374384396639796,0.0034557519189487725,"""test""","""2022-04-28",,},LDR_REAR_LEFT,"""/dev/video1""",true,false,20,{,640,0,2304,1536,},true,false,{,,,},{,,,,,,,}
H110SA-D11300148,IMX490_H115,{,-1.42,2.083,-0.761,-0.092711889865938785,0.004345869837465881,-0.021362830044410593,"""test""","""2022-04-28",,},LDR_REAR_RIGHT,"""/dev/video2""",true,false,20,{,128,0,2304,1536,},true,false,{,,,},{,,,,,,,}
H110SA-D11300365,IMX490_H115,{,-0.01,-0.156,-0.026,-0.43998005113525052,0.28710666195306722,0.0061086523819801532,"""test""","""2022-04-28",,},LDR_FRONT_RIGHT,"""/dev/video0""",true,false,20,{,,,,,},true,true,{,2304,1536,},{,,,,,,,}
H130S-E03220700,IMX490_H115,{,0.2,0,-0.15,-0.036285395148962112,0.048781952593241508,-0.018308503853420515,"""test""","""2022-04-28",,},LDR_FRONT,"""/dev/video4""",true,false,20,{,0,480,2880,1080,},,,{,,,},{,,,,,,,}
H60S1-D12160012,IMX490_H60,{,0.2,-0.05,-0.15,-0.054646258879942455,0.037803831598197175,-0.013718287920675431,"""test""","""2022-04-28",,},LDR_FRONT,"""/dev/video5""",true,false,20,{,0,0,2880,1860,},,,{,,,},{,,,,,,,}
H30S1-E03180601,IMX490_H60,{,0.199,0.05,-0.15,-0.029269171555944908,0.0318871654339364,-0.017924531417981764,"""test""","""2022-04-28",,},LDR_FRONT,"""/dev/video6""",true,false,20,{,0,0,2880,1860,},,,{,,,},{,,,,,,,}
H60S-E03120518,IMX490_H60,{,-0.337,0.273,0.083,0.7884699428809584,0.049741883681838392,-0.01630137521362704,"""test""","""2022-04-28",,},LDR_REAR_LEFT,"""/dev/video2""",true,false,20,{,0,64,2624,1152,},true,,{,,,},{,0.399686,0.0225555,1.5316,3.1278,0.00918722,-0.00172094,}

sn,model,radar_id,extrinsics,x,y,z,yaw,pitch,roll,calibration_engineer,calibration_time,calibration_run,extrinsics,socket_can_id,sensor_id
RADAR_GUUDQ4FR,RADAR_CONTI408,RAD_FRONT,{,3.68,0,0.4,-0.0008,0,0,"""zhihui""","""2021-06-25",,},2,0
RADAR_GUUDQ3LF,RADAR_CONTI308,RAD_REAR_LEFT,{,-0.755,0.745,0.85,2.2655,0,0,"""zhihui""","""2022-03-24",,},1,4
RADAR_GUUDQ89T,RADAR_CONTI308,RAD_REAR_RIGHT,{,-0.755,-0.745,0.85,-2.2655,0,0,"""zhihui""","""2022-03-24",,},3,5

sn,model,lidar_id,extrinsics,x,y,z,yaw,pitch,roll,calibration_engineer,calibration_time,calibration_run,extrinsics,enabled,valid_point_min_range,rs_lidar_params,difop_port,ip_address,rs_lidar_params,hesai_lidar_params,intensity_nonlinear_mapping,hesai_lidar_params,ouster_lidar_params,ip_address,ouster_lidar_params,port,ip
2127000024FF,LIDAR_RS_M1,LDR_FRONT_LEFT,{,1.6649012326800627,0.517764987563641,1.5883,0.53930401622001689,0.0010205873998979207,-0.002630177024779471,"""czh""","""2022-05-04","""20220420_191303_Q2301""",},true,,{,7788,"""192.168.6.201""",},{,,},{,,},2368,
2127900045FF,LIDAR_RS_M1,LDR_FRONT,{,1.7720424254235045,0.013379516293128902,1.6496413575184519,0.00095225464195831922,0.0045164297708195911,-0.001856633170908048,"""czh""","""2022-05-04","""20220420_191303_Q2301""",},true,,{,7789,"""192.168.6.202""",},{,,},{,,},2369,
2126500007FF,LIDAR_RS_M1,LDR_FRONT_RIGHT,{,1.6765702887473797,-0.50478344672591891,1.5861608541983332,-0.52289753497266833,0.029588814507331751,-9.6434512022902652e-05,"""czh""","""2022-05-04","""20220420_191303_Q2301""",},true,,{,7790,"""192.168.6.203""",},{,,},{,,},2370,
2126700032FF,LIDAR_RS_M1,LDR_REAR_LEFT,{,-0.021678583250572772,0.46694290186190895,1.6022773655463007,2.3573213930624859,-0.0089062421152934969,0.0051001795993063041,"""czh""","""2022-05-04","""20220420_191303_Q2301""",},true,,{,7791,"""192.168.6.204""",},{,,},{,,},2371,
2129100041FF,LIDAR_RS_M1,LDR_REAR_RIGHT,{,-0.023315491726988217,-0.47873332718928491,1.600105653266068,-2.3583773201273446,-0.015074593916366563,0.00533671108757261,"""czh""","""2022-05-04","""20220420_191303_Q2301""",},true,,{,7792,"""192.168.6.205""",},{,,},{,,},2372,
QT3FC95A9C3FC952,LIDAR_PANDAR_QT128,LDR_FRONT_LEFT_BLIND,{,2.4810480926213949,0.95648121614844639,1.0198845819482576,1.5670785756525494,0.61931177190696274,0.0024107656152143704,"""czh""","""2022-05-04","""20220420_191303_Q2301""",},true,,{,,,},{,false,},{,,},2373,"""192.168.6.206"""
QT30CD509D30CD57,LIDAR_PANDAR_QT128,LDR_FRONT_RIGHT_BLIND,{,2.4919983370983338,-0.9381911700993586,1.002893743722052,-1.5769854484977994,0.61348816621997759,-0.017857175022394145,"""czh""","""2022-05-04","""20220420_191303_Q2301""",},true,,{,,,},{,false,},{,,},2374,"""192.168.6.207"""

sn,model,antenna_extrinsics,id,x,y,z,antenna_extrinsics,antenna_extrinsics,id,x,y,z,antenna_extrinsics,format,data_port,udp,address,port,src_port,udp,tcp,address,port,tcp,data_port,command_port,udp,address,port,src_port,udp,command_port,imu_extrinsics,x,y,z,yaw,pitch,roll,calibration_engineer,calibration_time,calibration_run,imu_extrinsics,gnss_data_rate_hz,imu_data_rate_hz
GNSS_1BI7N7OY,GNSS_NERTON_M2,{,ANT1,-0.335,0.2086,0.912259,},{,ANT2,0.57175,0.2086,0.912259,},NEWTONM2_TEXT,{,{,"""192.168.5.111""",3003,7000,},{,,,},},{,{,"""192.168.5.111""",3004,7001,},},{,0.12175,0.488662,-0.589741,-0.67067640928111827,0.53953503494974608,0,"""czh""","""2022-03-19",,},20,0

sn,model,nodes_run_config,nodes,node_name,name_space,node_ip,node_port,lite_launch_config_filenam,timeout,nodes,nodes_scheme_name,nodes_run_config,obc_config,ip_address,main_display,obc_type,node_name_to_camera_id,node_name,camera_id,camera_id,camera_id,camera_id,camera_id,camera_id,node_name_to_camera_id,obc_config
OBC_FRR1GBUM,OBC_XAVIER,{,{,"""sensor_node_1""","""xavier""","""192.168.7.101""","""50071""",,50,},"""node_normal_5""",},{,,,,{,"""sensor_node_1""",CAM_PBQ_FRONT_LEFT,CAM_PBQ_REAR_LEFT,CAM_PBQ_REAR_RIGHT,CAM_PBQ_FRONT_TELE,CAM_PBQ_FRONT_WIDE,CAM_R_FRONT_DIM,},}
OBC_IYGUU6J4,OBC_XAVIER,{,{,"""sensor_node_2""","""xavier""","""192.168.8.101""","""50081""",,50,},"""node_normal_10""",},{,"""192.168.5.102""",false,OT_NVIDIA_XAVIER_AGX,{,"""sensor_node_2""",CAM_PBQ_REAR,CAM_PBQ_FRONT_RIGHT,},}

sn,model,obu_entity,ip,port,is_send,enabled,sub_type,obu_entity
V2X_L6VB6TV4,V2X_UNKNOWN,{,,,,,,}

sn,model,can_params,type,bit_rate,socketcan_ifname,enable,can_params,omc_config,gpu_id_to_device_id,gpu_id,device_id,gpu_type,gpu_id_to_device_id,ip_address,main_display,omc_config,nodes_run_config,nodes_scheme_name,nodes,node_name,name_space,node_ip,node_port,lite_launch_config_filename,timeout,nodes,nodes,node_name,name_space,node_ip,node_port,lite_launch_config_filename,timeout,nodes,nodes_run_config
OMC_RH8EHJLT,OMC_X86,{,SOCKETCAN,500000,"""can0""",true,},{,{,GPU_0,1,GT_A30,},,,},{,"""node_normal_10""",{,"""main_node""","""omc""","""192.168.7.100""","""50070""","""launch_run_with_ra_2.pb.txt""",50,},{,"""main_node""","""omc""","""192.168.8.100""","""50080""","""launch_run_with_ra_2.pb.txt""",50,},}




