sn,model,extrinsics,x,y,z,yaw,pitch,roll,calibration_engineer,calibration_time,calibration_run,extrinsics,ref_lidar_id,device_path,hardware_trigger,rotate_90_ccw,expected_fps,roi,x,y,width,height,roi,full_undistort_fov,warp_perspective,warped_size,width,height,warped_size,camera_to_vehicle_extrinsics,x,y,z,yaw,pitch,roll,camera_to_vehicle_extrinsics
H120-D03080026,AR0231_H60,{,0.0835,0,-0.0887,-0.017453292519943295,-0.0445058959258554,0.0069813170079773184,"""linhan""","""2021-11-06",,},LDR_FRONT_LEFT,"""/dev/video2""",true,true,10,{,0,720,1080,1200,},,,{,,,},{,,,,,,,}
CAMERA_0GV3030V,AR0231_H60,{,0.0537,0.064,-0.0887,0.865578589234068,-0.069097585086455582,-0.00010471975511967516,"""hl""","""2022-04-21",,},LDR_FRONT_LEFT,"""/dev/video0""",true,true,10,{,0,720,1080,1200,},,,{,,,},{,,,,,,,}
H60-D03050549,AR0231_H60,{,0.0835,0,-0.0887,-0.013281955607676846,0.061802108813119518,0.0070685834705770372,"""hl""","""2022-04-21",,},LDR_FRONT_RIGHT,"""/dev/video4""",true,,10,{,,,,,},,,{,,,},{,,,,,,,}
H120-D03080032,AR0231_H60,{,0.0537,-0.06,-0.0887,-0.8902226382722277,-0.020333085785733635,0.0034906585039886592,"""hl""","""2022-04-21",,},LDR_FRONT_LEFT,"""/dev/video6""",true,true,10,{,0,720,1080,1200,},,,{,,,},{,,,,,,,}

sn,model,radar_id,extrinsics,x,y,z,yaw,pitch,roll,calibration_engineer,calibration_time,calibration_run,extrinsics,socket_can_id,sensor_id
RADAR_K0GN1BKQ,RADAR_CONTI408,RAD_FRONT,{,4.4,0.3,0.49,0.025,0,0,"""linhan""","""2021-11-06",,},2,0
RADAR_GHGLDAB6,RADAR_CONTI408,RAD_REAR,{,-0.8,0.1,0.47,-3.15,0,0,"""zhihui""","""2021-01-25",,},3,1

sn,model,lidar_id,extrinsics,x,y,z,yaw,pitch,roll,calibration_engineer,calibration_time,calibration_run,extrinsics,enabled,valid_point_min_range,rs_lidar_params,difop_port,ip_address,rs_lidar_params,hesai_lidar_params,intensity_nonlinear_mapping,hesai_lidar_params,ouster_lidar_params,ip_address,ouster_lidar_params,port,ip
PA403BC851923BC950,LIDAR_PANDAR_40M,LDR_FRONT_LEFT,{,4.1198448858093055,1.0190814175743235,2.3969691913371642,-0.05599560306764495,-0.0052394984122741128,0.0038675622727502024,"""linhan""","""2021-11-12",,},true,,{,,,},{,true,},{,,},2368,"""192.168.6.201"""
PA4035C1579335C15E,LIDAR_PANDAR_40M,LDR_FRONT_RIGHT,{,4.1197266500654575,-1.0642791235823017,2.3742467711972854,0.010230791609922657,-0.0038893442238777886,0.010126248464124158,"""linhan""","""2021-11-12",,},true,,{,,,},{,true,},{,,},2369,"""192.168.6.202"""
2400B0B9C7E2,LIDAR_RS_BPEARL,LDR_FRONT_LEFT_BLIND,{,4.1255096146288919,1.0245962790674088,2.1705457677699185,-2.6451047541706196,0.00055039519646582491,-0.0046927335782847024,"""linhan""","""2021-11-12",,},true,0.8,{,7788,"""192.168.6.203""",},{,,},{,,},2370,
2400BABFFA38,LIDAR_RS_BPEARL,LDR_FRONT_RIGHT_BLIND,{,4.10434515347648,-1.0521451805938358,2.1468064108446363,2.6772139492923936,-5.0782988515880672e-05,-0.0085061985626534477,"""linhan""","""2021-11-12",,},true,0.8,{,7789,"""192.168.6.204""",},{,,},{,,},2371,
2400BABE4575,LIDAR_RS_BPEARL,LDR_REAR_BLIND,{,-0.77491662559901631,-0.025561006987782076,2.2855574692828564,-0.0029713357879277424,0.022192203133580612,-0.019470810657166382,"""linhan""","""2021-11-12",,},true,,{,7790,"""192.168.6.205""",},{,,},{,,},2372,

sn,model,antenna_extrinsics,id,x,y,z,antenna_extrinsics,antenna_extrinsics,id,x,y,z,antenna_extrinsics,format,data_port,udp,address,port,src_port,udp,tcp,address,port,tcp,data_port,command_port,udp,address,port,src_port,udp,command_port,imu_extrinsics,x,y,z,yaw,pitch,roll,calibration_engineer,calibration_time,calibration_run,imu_extrinsics,gnss_data_rate_hz,imu_data_rate_hz
GNSS_HGAB2TTY,GNSS_NERTON_M2,{,ANT1,0.33,-4.15,1.625,},{,ANT2,0.33,0.64,1.625,},NEWTONM2_TEXT,{,{,"""192.168.5.111""",3003,7000,},{,,,},},{,{,"""192.168.5.111""",3004,7001,},},{,0.33,-3.91,-0.94,0.86249990151126454,0.19594553729959346,0,"""linhan""","""2021-10-29",,},20,0

sn,model,nodes_run_config,nodes,node_name,name_space,node_ip,node_port,lite_launch_config_filenam,timeout,nodes,nodes_scheme_name,nodes_run_config,obc_config,ip_address,main_display,obc_type,node_name_to_camera_id,node_name,camera_id,camera_id,camera_id,camera_id,node_name_to_camera_id,obc_config
OBC_YU1IAFQK,OBC_XAVIER,{,{,"""sensor_node_1""","""xavier""","""192.168.7.101""","""50071""",,50,},"""node_normal_10""",},{,"""192.168.5.101""",false,,{,"""sensor_node_1""",CAM_L_FRONT,CAM_L_FRONT_LEFT,CAM_R_FRONT,CAM_L_FRONT_RIGHT,},}
OBC_Q78GAGV3,OBC_XAVIER,{,{,,,,,,,},,},{,"""192.168.5.105""",true,OT_NVIDIA_TX2_NX,{,"""sensor_node_5""",,},}

sn,model,obu_entity,ip,port,is_send,enabled,sub_type,obu_entity
V2X_QPOZ503S,V2X_HUALI,{,,,,,,}

sn,model,can_params,type,bit_rate,socketcan_ifname,enable,can_params,omc_config,gpu_id_to_device_id,gpu_id,device_id,gpu_type,gpu_id_to_device_id,gpu_id_to_device_id,gpu_id,device_id,gpu_type,gpu_id_to_device_id,ip_address,main_display,omc_config,nodes_run_config,nodes_scheme_name,nodes,node_name,name_space,node_ip,node_port,lite_launch_config_filename,timeout,nodes,nodes_run_config
OMC_78VN36BA,OMC_X86,{,SOCKETCAN,500000,"""can0""",true,},{,{,GPU_0,1,GT_RTX_2080_TI,},{,GPU_1,0,GT_RTX_2080_TI,},"""192.168.5.100""",false,},{,"""node_normal_10""",{,"""main_node""","""omc""","""192.168.7.100""","""50070""","""launch_run_with_ra_2.pb.txt""",50,},}




