sn,model,type,camera_id,extrinsics,x,y,z,yaw,pitch,roll,calibration_engineer,calibration_time,calibration_run,extrinsics,ref_lidar_id,device_path,hardware_trigger,rotate_90_ccw,expected_fps,roi,x,y,width,height,roi,full_undistort_fov,warp_perspective,warped_size,width,height,warped_size,camera_to_vehicle_extrinsics,x,y,z,yaw,pitch,roll,camera_to_vehicle_extrinsics
Q8005_001,AR0231_H60,HARDWARE_CAMERA,CAM_L_FRONT_LEFT,{,0.0585,0.059,-0.097,0.87107637637785162,0,-0.0056897733615015175,"""maotao""","""2022-03-10 02:33:12""",,},LDR_FRONT_LEFT,"""/dev/video6""",true,,10,{,,,,,},,,{,,,},{,,,,,,,}
Q8005_002,AR0231_H60,HARDWARE_CAMERA,CAM_L_FRONT,{,0.077,0,-0.097,0.011362093430483087,0.00017453292519943305,0.0078016217564146643,"""maotao""","""2022-03-10 02:33:12""",,},LDR_FRONT_LEFT,"""/dev/video4""",true,,10,{,,,,,},,,{,,,},{,,,,,,,}
Q8005_003,AR0231_H60,HARDWARE_CAMERA,CAM_R_FRONT,{,0.0771,0,-0.097,0.013229595730117017,0.00026179938779914941,-0.004852015320544233,"""maotao""","""2022-03-10 02:33:12""",,},LDR_FRONT_RIGHT,"""/dev/video2""",true,,10,{,,,,,},,,{,,,},{,,,,,,,}
Q8005_004,AR0231_H60,HARDWARE_CAMERA,CAM_R_FRONT_RIGHT,{,0.0495,-0.059,-0.097,-0.831370135894984,-0.0018151424220741027,-0.0017453292519943296,"""maotao""","""2022-03-10 02:33:12""",,},LDR_FRONT_RIGHT,"""/dev/video0""",true,,10,{,,,,,},,,{,,,},{,,,,,,,}
Q8005_005,AR0231_H60,HARDWARE_CAMERA,CAM_INSIDE_DRIVER,{,,,,3.14,,,"""""","""""",,},LDR_FRONT_RIGHT,"""/dev/video7""",true,,10,{,,,,,},,,{,,,},{,,,,,,,}

sn,model,type,antenna_extrinsics,id,x,y,z,calibration_time,calibration_engineer,antenna_extrinsics,antenna_extrinsics,id,x,y,z,calibration_time,calibration_engineer,antenna_extrinsics,format,data_port,udp,address,port,src_port,udp,tcp,address,port,tcp,data_port,command_port,udp,address,port,src_port,udp,command_port,imu_extrinsics,x,y,z,yaw,pitch,roll,calibration_engineer,calibration_time,calibration_run,imu_extrinsics,gnss_data_rate_hz,imu_data_rate_hz
GNSS_GJ5S6ZG2,GNSS_NERTON_M2,HARDWARE_GNSS,{,ANT1,-0.39,-4.214,1.482,"""2020-06-21 13:38 PDT""","""""",},{,ANT2,-0.39,-0.87,1.482,"""2020-06-21 13:38 PDT""","""""",},NEWTONM2_TEXT,{,{,"""192.168.5.111""",3003,7000,},{,,,},},{,{,"""192.168.5.111""",3004,7001,},},{,-0.39,-4.205,-1.03,0.630555620470221,-1.1900721546074078,0,"""""","""2020-09-01 13:38 PDT""",,},20,0

sn,model,type,lidar_id,extrinsics,x,y,z,yaw,pitch,roll,calibration_engineer,calibration_time,calibration_run,extrinsics,enabled,valid_point_min_range,rs_lidar_params,difop_port,ip_address,rs_lidar_params,hesai_lidar_params,intensity_nonlinear_mapping,hesai_lidar_params,ouster_lidar_params,ip_address,ouster_lidar_params,port,ip,ignored_scan_azimuth_ranges_in_degree,first,last,first_beam,last_beam,ignored_scan_azimuth_ranges_in_degree,ignored_scan_azimuth_ranges_in_degree,first,last,first_beam,last_beam,ignored_scan_azimuth_ranges_in_degree
PA403DC857923DC956,LIDAR_PANDAR_40M,HARDWARE_LIDAR,LDR_FRONT_LEFT,{,4.5149884223937988,0.98993766307830811,2.315000057220459,3.7734676880063489e-05,-0.003981179092079401,0.02392192929983139,"""linhan""","""2021-01-11 14:55:10""",,},true,,{,,,},{,true,},{,,},2368,"""192.168.6.201""",{,260,330,,,}
PA403BC75E923BC65F,LIDAR_PANDAR_40M,HARDWARE_LIDAR,LDR_FRONT_RIGHT,{,4.5242109298706055,-0.97903048992156982,2.2952656745910645,-0.034534666687250137,-0.016676910221576691,-0.0019057454774156213,"""zhihui""","""2021-03-04 10:43:39""",,},true,,{,,,},{,true,},{,,},2369,"""192.168.6.202""",{,30,100,,,}
122140001114,LIDAR_OS0_64,HARDWARE_LIDAR,LDR_FRONT_LEFT_BLIND,{,4.6312328644083927,1.0391897400886,2.1034626058348711,0.43018783179622389,0.82921862236971233,-0.7006243730776951,"""zyl""","""2022-01-10 07:37:35""",,},true,0.8,{,,,},{,,},{,"""192.168.6.203""",},2370,,{,295,360,,,}
992103000442,LIDAR_OS0_64,HARDWARE_LIDAR,LDR_FRONT_RIGHT_BLIND,{,4.6297640800476074,-0.982912540435791,2.0765011310577393,-0.37694138288497925,0.79239463806152344,0.77043485641479492,"""zhihui""","""2021-03-04 10:43:39""",,},true,0.8,{,,,},{,,},{,"""192.168.6.204""",},2371,,{,0,45,,,}
122036000164,LIDAR_OS0_64,HARDWARE_LIDAR,LDR_REAR_BLIND,{,-0.80428469181060791,-0.012111403979361057,2.3771605491638184,-3.0897090435028076,0.81814754009246826,0.045860130339860916,"""linhan""","""2021-01-12 03:09:44""",,},true,0.8,{,,,},{,,},{,"""192.168.6.205""",},7502,,{,0,88.68,,,},{,268.68,360,,,}

sn,model,type,obc_config,ip_address,node_name_to_camera_id,node_name,camera_id,camera_id,camera_id,camera_id,camera_id,camera_id,camera_id,camera_id,node_name_to_camera_id,main_display,obc_type,obc_config,nodes_run_config,nodes_scheme_name,nodes,node_name,name_space,node_ip,node_port,lite_launch_config_filename,timeout,nodes,nodes_run_config
OBC_DTJQD4HN,OBC_XAVIER,HARDWARE_OBC,{,,{,"""sensor_node_1""",CAM_L_FRONT_LEFT,CAM_L_FRONT,CAM_R_FRONT,CAM_R_FRONT_RIGHT,CAM_INSIDE_DRIVER,,,,},,,},{,"""node_normal_5""",{,"""sensor_node_1""","""xavier""","""192.168.7.101""","""50071""","""launch_run_xavier.pb.txt""",50,},}

sn,model,type,can_params,type,bit_rate,socketcan_ifname,enable,can_params,omc_config,gpu_id_to_device_id,gpu_id,device_id,gpu_type,gpu_id_to_device_id,gpu_id_to_device_id,gpu_id,device_id,gpu_type,gpu_id_to_device_id,ip_address,main_display,omc_config,nodes_run_config,nodes_scheme_name,nodes,node_name,name_space,node_ip,node_port,lite_launch_config_filename,timeout,nodes,nodes_run_config
OMC_CF88ZT0R,OMC_X86,HARDWARE_OMC,{,SOCKETCAN,250000,"""can0""",true,},{,{,GPU_0,1,GT_RTX_2080_TI,},{,GPU_1,0,GT_RTX_2080_TI,},,,},{,"""node_normal_5""",{,"""main_node""","""omc""","""192.168.7.100""","""50070""","""launch_run_with_ra_2.pb.txt""",50,},}

sn,model,type,radar_id,extrinsics,x,y,z,yaw,pitch,roll,calibration_engineer,calibration_time,calibration_run,extrinsics,socket_can_id,sensor_id
RADAR_XSD87QNS,RADAR_CONTI408,HARDWARE_RADAR,RAD_FRONT,{,4.98,0.82,0,0.0467,0,0,"""linhan""","""2021-01-26 07:59:40""",,},2,0
RADAR_71IE7Q9U,RADAR_CONTI408,HARDWARE_RADAR,RAD_REAR,{,-0.82,0.4,0,3.1401,0,0,"""linhan""","""2021-01-26 08:21:06""",,},3,1

sn,model,type,obu_entity,ip,port,is_send,enabled,sub_type,obu_entity,obu_entity,ip,port,is_send,enabled,sub_type,obu_entity
V2X_TTQIY16D,V2X_HUALI,HARDWARE_V2X,{,"""192.168.5.200""",10008,false,true,,},{,"""192.168.5.200""",10007,true,true,OBJECT_IN_VEHICLE,}

sn,model,type,steering_direction,wheel_rolling_radius,serial_no
VEHICLE_MT797K1F,VEHICLE_JINLV_MINIBUS,HARDWARE_VEHICLE,-1,0.335,"""VEHICLE_MT797K1F"""

